{
	"type":"FeatureCollection",
	"features":[
		{
			"type":"Feature",
			"properties":{
				"place": "Hotel pietra" 
			},
			"geometry":{
				"coordinates":[47.0793118088811,-21.4549392234928],
				"type":"Point"
			}
		},
		{
			"type":"Feature",
			"properties":{
				"place": "Zomatel"
			},
			"geometry":{
				"coordinates":[47.07747193335828,-21.455077001314123],
				"type":"Point"
			}
		},
		{
			"type":"Feature",
			"properties":{
				"place": "Hotel Colbert"
			},
			"geometry":{
				"coordinates":[47.088764937542834,-21.446298342704353],
				"type":"Point"
			}
		},
		{
			"type":"Feature",
			"properties":{
				"place": "ENI Ecole National d'Informatique"
			},
			"geometry":{
				"coordinates":[47.09265619183316,-21.441871283706348],
				"type":"Point"
				}
			},
			{
				"type":"Feature",
				"properties":{
					"place": "Andrainjato"

				},
				"geometry":{
					"coordinates":[47.0803271305482,-21.45514275874848],
					"type":"Point"
				}
			},
			{
				"type":"Feature",
				"properties":{
					
				},
				"geometry":{
					"coordinates":[47.0872848232199,-21.457101157923375],
					"type":"Point"
				}
			}
		]
	}