{
    "places": [
        {
            "id": 1,
            "type": "Hotel",
            "name": "Zomatel",
            "coordinates": [-21.454799,47.086746]
        },
        {
            "id": 2,
            "type": "Cyber",
            "name": "301-Cyber",
            "coordinates": [-21.457198,47.090124]
        },

        {
            "id": 3,
            "type":"Hotel",
            "name": "Tombotsoa Hotel",
            "coordinates": [-21.450248,47.087712]
        },
        {
            "id": 4,
            "type": "Restaurant",
            "name": "Baby food",
            "coordinates": [-21.441847,47.092636]
        },
        {
            "id": 5,
            "type":"Station service",
            "name": "Jovena Tsaramandroso",
            "coordinates": [-21.463621,47.080167]
        },
        {
            "id": 6,
            "type": "Aeroport",
            "name": "Aeroport Morondava",
            "coordinates": [-20.287444,44.317054]
        },
        {
            "id": 7,
            "type": "Banque",
            "name": "Agence BOA",
            "coordinates": [-18.920096,47.521447]
        },
        
        {
            "id": 8,
            "type":"Hotel",
            "name": "T Hotel",
            "coordinates": [-21.450248,47.087712]
        }
        


    ]

}

